[
  { "nom": "Paris", "region": "Île-de-France", "lat": 48.8566, "lon": 2.3522 },
  { "nom": "Lyon", "region": "Auvergne-Rhône-Alpes", "lat": 45.7640, "lon": 4.8357 },
  { "nom": "Nice", "region": "PACA", "lat": 43.7102, "lon": 7.2620 },
  { "nom": "Marseille", "region": "PACA", "lat": 43.2965, "lon": 5.3698 },
  { "nom": "Bordeaux", "region": "Nouvelle-Aquitaine", "lat": 44.8378, "lon": -0.5792 },
  { "nom": "Toulouse", "region": "Occitanie", "lat": 43.6047, "lon": 1.4442 },
  { "nom": "Strasbourg", "region": "Grand Est", "lat": 48.5734, "lon": 7.7521 },
  { "nom": "Nantes", "region": "Pays de la Loire", "lat": 47.2184, "lon": -1.5536 },
  { "nom": "Lille", "region": "Hauts-de-France", "lat": 50.6292, "lon": 3.0573 },
  { "nom": "Montpellier", "region": "Occitanie", "lat": 43.6108, "lon": 3.8767 },
  { "nom": "Cannes", "region": "PACA", "lat": 43.5528, "lon": 7.0174 },
  { "nom": "Aix-en-Provence", "region": "PACA", "lat": 43.5297, "lon": 5.4474 },
  { "nom": "Rennes", "region": "Bretagne", "lat": 48.1173, "lon": -1.6778 },
  { "nom": "Reims", "region": "Grand Est", "lat": 49.2583, "lon": 4.0317 },
  { "nom": "Saint-Malo", "region": "Bretagne", "lat": 48.6493, "lon": -2.0257 },
  { "nom": "Annecy", "region": "Auvergne-Rhône-Alpes", "lat": 45.8992, "lon": 6.1293 },
  { "nom": "La Rochelle", "region": "Nouvelle-Aquitaine", "lat": 46.1603, "lon": -1.1511 },
  { "nom": "Avignon", "region": "PACA", "lat": 43.9493, "lon": 4.8055 },
  { "nom": "Tours", "region": "Centre-Val de Loire", "lat": 47.3941, "lon": 0.6848 },
  { "nom": "Dijon", "region": "Bourgogne-Franche-Comté", "lat": 47.3220, "lon": 5.0415 },
  { "nom": "Versailles", "region": "Île-de-France", "lat": 48.8014, "lon": 2.1301 },
  { "nom": "Colmar", "region": "Grand Est", "lat": 48.0794, "lon": 7.3585 },
  { "nom": "Biarritz", "region": "Nouvelle-Aquitaine", "lat": 43.4832, "lon": -1.5586 },
  { "nom": "Rouen", "region": "Normandie", "lat": 49.4432, "lon": 1.0999 },
  { "nom": "Nîmes", "region": "Occitanie", "lat": 43.8367, "lon": 4.3601 },
  { "nom": "Saint-Denis", "region": "La Réunion", "lat": -20.8820, "lon": 55.4507 },
  { "nom": "Fort-de-France", "region": "Martinique", "lat": 14.6161, "lon": -61.0588 },
  { "nom": "Pointe-à-Pitre", "region": "Guadeloupe", "lat": 16.2333, "lon": -61.5167 },
  { "nom": "Cayenne", "region": "Guyane", "lat": 4.9333, "lon": -52.3333 },
  { "nom": "Mamoudzou", "region": "Mayotte", "lat": -12.7806, "lon": 45.2278 },
  { "nom": "Nouméa", "region": "Nouvelle-Calédonie", "lat": -22.2758, "lon": 166.4428 },
  { "nom": "Papeete", "region": "Polynésie française", "lat": -17.5350, "lon": -149.5696 }
]